{
  "type": "FeatureCollection",
  "features": [
    {
      "type": "Feature",
      "properties": {
        "name": "WP1 - Start (Ground Level)",
        "alt_m": 0,
        "description": "Facade inspection mission start point"
      },
      "geometry": {
        "type": "Point",
        "coordinates": [13.4050, 52.5200, 0]
      }
    },
    {
      "type": "Feature",
      "properties": {
        "name": "WP2 - Ascend to 30m",
        "alt_m": 30,
        "description": "First inspection altitude"
      },
      "geometry": {
        "type": "Point",
        "coordinates": [13.4055, 52.5205, 30]
      }
    },
    {
      "type": "Feature",
      "properties": {
        "name": "WP3 - Mid facade (60m)",
        "alt_m": 60,
        "description": "Second inspection pass"
      },
      "geometry": {
        "type": "Point",
        "coordinates": [13.4060, 52.5210, 60]
      }
    },
    {
      "type": "Feature",
      "properties": {
        "name": "WP4 - Top facade (90m)",
        "alt_m": 90,
        "description": "Third inspection pass"
      },
      "geometry": {
        "type": "Point",
        "coordinates": [13.4065, 52.5215, 90]
      }
    },
    {
      "type": "Feature",
      "properties": {
        "name": "WP5 - Descent (60m)",
        "alt_m": 60,
        "description": "Begin descent"
      },
      "geometry": {
        "type": "Point",
        "coordinates": [13.4070, 52.5220, 60]
      }
    },
    {
      "type": "Feature",
      "properties": {
        "name": "WP6 - RTH (Home)",
        "alt_m": 0,
        "description": "Return to launch point"
      },
      "geometry": {
        "type": "Point",
        "coordinates": [13.4050, 52.5200, 0]
      }
    },
    {
      "type": "Feature",
      "properties": {
        "name": "CGA - Controlled Ground Area",
        "description": "Public access restricted during operation"
      },
      "geometry": {
        "type": "Polygon",
        "coordinates": [[
          [13.4045, 52.5195],
          [13.4075, 52.5195],
          [13.4075, 52.5225],
          [13.4045, 52.5225],
          [13.4045, 52.5195]
        ]]
      }
    }
  ]
}
